[
  {
    "id": "1",
    "urlId": "sk-app-123",
    "name": "BA flat 3 rooms",
    "asa": 37074699,
    "image": "https://www.bezrealitky.cz/media/cache/record_main/data/record/images/689k/689369/1635011618-khxwcwnwfr.jpg",
    "investmentType": "live",
    "lat": 48.154106341396286,
    "lng": 17.17770822948685,
    "propertyType": "appartment",
    "rate": 0.0205,
    "evaluation": 300000,
    "currency": "eur",
    "region": "eu",
    "state": "sk",
    "city": "bratislava",
    "top": false,
    "showToPublic": true
  },
  {
    "id": "2",
    "urlId": "sk-app-124",
    "name": "BA flat 2 rooms",
    "asa": 37074699,
    "image": "https://www.bezrealitky.cz/media/cache/record_main/data/record/images/669k/669371/1624285279-xsvocwvgtb.jpg",
    "investmentType": "live",
    "lat": 48.10449753256651,
    "lng": 17.107606100464025,
    "propertyType": "appartment",
    "rate": 0.0208,
    "evaluation": 200000,
    "currency": "eur",
    "region": "eu",
    "state": "sk",
    "city": "bratislava",
    "top": false,
    "showToPublic": true
  },
  {
    "id": "3",
    "urlId": "sk-app-125",
    "name": "BA flat 2 rooms",
    "asa": 37074699,
    "image": "https://www.bezrealitky.cz/media/cache/record_main/data/record/images/689k/689865/1635343018-bsmipkvsmx.jpg",
    "investmentType": "live",
    "lat": 48.10449753256651,
    "lng": 17.107606100464025,
    "propertyType": "appartment",
    "rate": 0.0205,
    "evaluation": 100003,
    "currency": "eur",
    "region": "eu",
    "state": "sk",
    "city": "bratislava",
    "top": false,
    "showToPublic": true
  },
  {
    "id": "4",
    "urlId": "cz-app-1",
    "name": "Kladníky",
    "asa": 37074699,
    "image": "https://www.bezrealitky.cz/media/cache/record_main/data/record/images/681k/681602/1630069011-runcciyxfn.jpg",
    "investmentType": "live",
    "lat": 49.48396029929011,
    "lng": 17.601466292315877,
    "propertyType": "house",
    "rate": 0.0205,
    "evaluation": 300007,
    "currency": "czk",
    "region": "eu",
    "state": "sk",
    "city": "bratislava",
    "top": false,
    "showToPublic": true
  },
  {
    "id": "5",
    "urlId": "cz-app-1",
    "name": "Kladníky",
    "asa": 37074699,
    "image": "https://www.bezrealitky.cz/media/cache/record_main/data/record/images/681k/681602/1630069011-runcciyxfn.jpg",
    "investmentType": "live",
    "lat": 49.48396029929011,
    "lng": 17.601466292315877,
    "propertyType": "house",
    "rate": 0.0205,
    "evaluation": 6000000,
    "currency": "czk",
    "region": "eu",
    "state": "cz",
    "city": "prague",
    "top": false,
    "showToPublic": true
  },
  {
    "id": "6",
    "urlId": "cz-app-1",
    "name": "Prague 2+kk",
    "asa": 37074699,
    "image": "https://d18-a.sdn.cz/d_18/c_img_QL_Jm/7nlIwh.jpeg?fl=res,749,562,3|shr,,20|jpg,90",
    "investmentType": "live",
    "lat": 50.04437526279532,
    "lng": 14.518993206512933,
    "propertyType": "appartment",
    "rate": 0.0505,
    "evaluation": 4500000,
    "currency": "czk",
    "region": "eu",
    "state": "cz",
    "city": "prague",
    "top": false,
    "showToPublic": true
  },
  {
    "id": "7",
    "urlId": "cz-app-1",
    "name": "Prague 2+kk",
    "asa": 37074699,
    "image": "https://d18-a.sdn.cz/d_18/c_img_gY_b/YbGjGK.jpeg?fl=res,749,562,3|shr,,20|jpg,90",
    "investmentType": "live",
    "lat": 50.02479235953802,
    "lng": 14.44982763455605,
    "propertyType": "appartment",
    "rate": 0.0305,
    "evaluation": 7000000,
    "currency": "czk",
    "region": "eu",
    "state": "cz",
    "city": "prague",
    "top": false,
    "showToPublic": true
  },
  {
    "id": "8",
    "urlId": "cz-app-1",
    "name": "Prague 2+kk",
    "asa": 37074699,
    "image": "https://d18-a.sdn.cz/d_18/c_img_gX_c/ZBnRug.jpeg?fl=res,1920,1080,1|wrm,/watermark/sreality.png,10|shr,,20|jpg,90",
    "investmentType": "live",
    "lat": 50.01418097614674,
    "lng": 14.44828183025487,
    "propertyType": "appartment",
    "rate": 0.0305,
    "evaluation": 6000000,
    "currency": "czk",
    "region": "eu",
    "state": "cz",
    "city": "prague",
    "top": false,
    "showToPublic": true
  },
  {
    "id": "10",
    "urlId": "oh-app-1",
    "name": "10917 Fidelity Ave",
    "asa": 37074699,
    "image": "https://dnldumbki4b4x.cloudfront.net/images/01FJZ4S4KD7CJVZB8BRVYVCAZD/003.webp",
    "investmentType": "ipo",
    "countdown": "2021-11-05",
    "lat": 41.46137548446799,
    "lng": -81.76247666548146,
    "propertyType": "house",
    "rate": 0.0105,
    "evaluation": 6000000,
    "currency": "usd",
    "region": "usa",
    "state": "ny",
    "city": "new-york",
    "top": false,
    "showToPublic": true
  },
  {
    "id": "11",
    "urlId": "oh-app-1",
    "name": "1677 Walker Ave",
    "asa": 37074699,
    "image": "https://dnldumbki4b4x.cloudfront.net/images/01FJG0QAVSKK1MQWZ28XXVXSPB/001.webp",
    "investmentType": "ipo",
    "countdown": "2021-11-04",
    "lat": 41.46137548446799,
    "lng": -81.76247666548146,
    "propertyType": "house",
    "rate": 0.0105,
    "evaluation": 6000000,
    "currency": "usd",
    "region": "usa",
    "state": "ny",
    "city": "new-york",
    "top": false,
    "showToPublic": true
  },
  {
    "id": "12",
    "urlId": "oh-app-1",
    "name": "3429 W 8th St",
    "asa": 37074699,
    "image": "https://dnldumbki4b4x.cloudfront.net/images/01FGS6HM0KWR822QJ20DF98ZQA/012.webp",
    "investmentType": "ipo",
    "countdown": "2021-11-02",
    "lat": 39.105429301938294,
    "lng": -84.56741133091711,
    "propertyType": "house",
    "rate": 0.0155,
    "evaluation": 6000000,
    "currency": "usd",
    "region": "usa",
    "state": "ny",
    "city": "new-york",
    "top": false,
    "showToPublic": true
  }
]